Iso3,Country,Site ID,Site name,Borehole name,Automatic Borehole ID,Local Borehole ID,Latitude,Longitude,Elevation in meters above sea level,Status,Drilling date,Unknown drilling date,Last editor,Date of update,Hidden borehole,Depth in m,Static water level in meters below ground level,Type of pump,Pump brand and model,Pump depth in m,Pump motor power in kilowatt,Energy source,Generator brand and model,Generator capacity in kilovolt-ampere (kVA),Casing diameter in inch,Casing material,Screened areas in m,Sum of screened areas in m,End of casing/start of open hole in m,Aquifer type,Driller's yield in m3/hr,Dynamic Water Level at driller's yield in m,Pumping tests (DWL [m] - yield [m3/hr]),Pumping test quality control evaluation from solar tool (read only),Safe yield from solar tool in m3/hr (read only),Transmissivity from constant rate pumping test in m2/sec,Daily pumping time in h,Date of last water quality control,Conductivity in micro S/cm (microsiemen/cm),pH,Turbidity in NTU,Ammonia concentration in mg/L,Arsenic concentration in micro g/L,Fluoride concentration in mg/L,Nitrate concentration in mg/L,Nitrite concentration in mg/L,E-Coli,Solar potential in % (read only),Investment cost estimation in $ (read only),Maintenance cost estimation (read only),Solar gross payback in years (read only),Amount of CO2 avoided in tonnes/year (read only),Attachment description,Comments
NER,Niger,NERs001259,Abala,QRC1,NER-NERs001259-001,Unknown,14.90133333,3.42122222,238,active,1/1/2013,,,,no,207,,electrical_pump,"Grundfos, SQFlex",,1.5,solar,,,5,pvc,,,,porous,5,,,,,,5,4/4/2013,,7.34,,,,1.74,4.9,0.03,,,,,,,,Screen Type: PVC.
NER,Niger,NERs001259,Abala,QRC2,NER-NERs001259-002,Unknown,14.91808333,3.42127778,234,active,1/1/2015,,,,no,174,,electrical_pump,"Grundfos, SQFlex",,1.05,solar,,,5,pvc,,,,porous,5,,,,,,5,23/06/2015,,7.35,2.37,,,1.8,6.16,0.281,,,,,,,,Screen Type: PVC. Screen length: 25m.
NER,Niger,NERs001259,Abala,UNHCR-ACTED,NER-NERs001259-003,Unknown,14.93861111,3.43305556,233,active,6/12/2012,,,,no,165,33.6,electrical_pump,"Grundfos, SP14A25",70,7.5,solar_generator,,,5,pvc,"52.0-60.91, 87.7-129.22, 141.01-158.8",68.22,,porous,15.6,,,,,,8,23/06/2015,,7.59,1.62,,,2.06,3.08,0.0363,,,,,,,,Screen Type: PVC. Screen length: 68m.
NER,Niger,,Bibibyergou,PLAN02(hors camp),NER--001,Unknown,14.43440278,1.22030556,,inactive,1/1/2013,,,,no,70,,hand_pump,Vergnet PHV60,,,,,,4,pvc,,,,fractured_rock,0.4,,,,,,24,,,,,,,,,,,,,,,,,Non operationnel. Screen Type: PVC.
NER,Niger,,Dagne,PLAN03(hors camp),NER--002,Unknown,14.72344444,1.33444444,,inactive,1/1/2013,,,,no,70,,hand_pump,Vergnet PHV60,,,,,,4,pvc,,,,fractured_rock,0.4,,,,,,24,,,,,,,,,,,,,,,,,Screen Type: PVC
NER,Niger,NERs009387,Goudoumaria,UNHCR-DRH/A,NER-NERs009387-001,Unknown,13.74577778,11.18958333,337,active,9/3/2015,,,,no,63,5.81,electrical_pump,"Grundfos, SP30A08",61,7.5,generator,,,8,pvc,,,,porous,7.5,,,,,,5,,,,,,,,,,,,,,,,,Screen Type: PVC.
NER,Niger,NERs009392,Intikane,EUKINAWANE,NER--003,Unknown,15.72222222,4.50277778,325,active,1/1/1963,,,,no,722.84,38,electrical_pump,"Grundfos, SP46A10",73.2,15,solar_generator,,,8,pvc,683.51-716.09,32.58,,porous,50,,,,,,10,23/06/2015,,7.1,,,,,9.48,0.121,,,,,,,,Screen Type: PVC. Screen length: 32.58m.
NER,Niger,NERs009368,Kablewa,KABLEWA,NER-NERs009368-001,Unknown,13.98047222,12.98069444,277,active,1/1/1963,,,,no,,,electrical_pump,"Grundfos, SP30A12",10,11,,,,,steel,,,,porous,,,,,,,8,,,,,,,,,,,,,,,,,Screen Type: PVC
NER,Niger,,Kaguira,PLAN04(hors camp),NER--004,Unknown,14.409,1.24275,,inactive,1/1/2013,,,,no,80,,hand_pump,Vergnet PHV60,,,,,,4,pvc,,,,fractured_rock,0.4,,,,,,24,,,,,,,,,,,,,,,,,Screen Type: PVC
NER,Niger,NERs004228,Mangaize,QRC3,NER-NERs004228-001,Unknown,14.67666667,1.954879,242,active,12/2/2012,,,,no,51.8,13,electrical_pump,"Grundfos, SQFlex",,1.5,solar,,,5,pvc,30.74-48.35,17.61,,porous,5.5,,,,,,5,12/4/2012,,6.6,,,,0.45,4.4,0.006,,,,,,,,Screen Type: PVC. Screen length: 17.61m.
NER,Niger,NERs004228,Mangaize,WVI,NER-NERs004228-002,Unknown,14.67691667,1.95252778,247,inactive,1/1/2012,,,,no,65,12.5,electrical_pump,"Grundfos, SP17A3",34,2.2,generator,,,5,pvc,47.63-61.09,13.46,,porous,13,,,,,,,8/12/2012,,6.73,81.4,1,,0.46,7.48,0.013,,,,,,,,Operation of the borehole stopped  after emergence situation. Screen Type: PVC. Screen length: 13.79m.
NER,Niger,NERs004228,Mangaize,OXFAM,NER-NERs004228-003,Unknown,14.676,1.95288889,234,active,1/1/2012,,,,no,92,16,electrical_pump,"Rock, 4SD5500T",41,5.5,generator,,,5,pvc,59.1-89.1,30,,porous,14,,,,,,8,27/05/2015,,6.27,12.27,,,0.18,2.64,0.393,,,,,,,,Screen Type: PVC. Screen length: 30m.
NER,Niger,NERs004228,Mangaize,QR4,NER-NERs004228-004,Unknown,14.67908333,1.95505556,241,active,1/1/2015,,,,no,69.7,,electrical_pump,"Grundfos, SQFlex",,1.1,solar,,,5,pvc,,,,porous,5.5,,,,,,5,,,,,,,,,,,,,,,,,Screen Type: PVC. Screen length: 24m.
NER,Niger,,Maradi,EL-Guidi,NER--000005,1820/WV,13.45763,6.69122,,active,8/8/2019,no,Bernadette KAWERA / Wash officer,6/11/2019,no,93.8,58.37,hand_pump,HPV,,,,,,,pvc,,,,porous,5,,,,,,2,9/8/2019,156,6.42,17,,,0,7.04,0.02,,,,,,,,
NER,Niger,,Maradi,Bassira1,NER--000006,1821/ WV,13.45763,6.69122,,active,17/08/2019,no,Bernadette KAWERA / Wash officer,17/08/2019,no,90.08,42.78,hand_pump,,,,,,,,pvc,,,,porous,8,,,,,,,20/08/2019,204,6.4,2,,,0.2,6.6,0.01,,,,,,,,
NER,Niger,,Maradi,Bassira2,NER--000007,1822 / WV,13.41119,6.62513,,active,20/08/2019,no,Bernadette KAWERA / Wash officer,7/11/2019,no,114.9,43.2,hand_pump,,,,,,,,pvc,,,,porous,12,,,,,,,23/08/2019,381,7.1,13,,,0.36,5.72,0.02,,,,,,,,
NER,Niger,,Maradi,Fangari,NER--000008,1823 / WV,13.29902,6.71909,,active,23/08/2019,no,Bernadette KAWERA / Wash officer,7/11/2019,no,63.8,33.08,hand_pump,,,,,,,,pvc,,,,porous,10,,,,,,,26/08/2019,147,6.17,0,,,0,25.08,0.03,,,,,,,,
NER,Niger,,Maradi,Chawagui,NER--000009,1824/ WV,13.25315,6.73758,,active,25/08/2019,no,Bernadette KAWERA / Wash officer,7/11/2019,no,60.08,28.53,hand_pump,,,,,,,,pvc,,,,porous,12,,,,,,,26/08/2019,88,6.9,11,,,0.12,7.04,0.01,,,,,,,,
NER,Niger,,Maradi,Garin Kaka,NER--000010,223 / WV,13.64948,7.03721,,active,6/5/2019,no,Bernadette KAWERA / Wash officer,7/11/2019,no,76.01,44.07,electrical_pump,,,,solar,,,,,,,,,8,,,,,,,,,,,,,,,,,,,,,,,
NER,Niger,,Maradi,Dan Dadji Makao,NER--000011,WV,13.71154,6.65734,,active,24/10/2019,no,Bernadette KAWERA / Wash officer,7/11/2019,no,129,,electrical_pump,,,,solar,,,,,,,,,10,,,,,,,28/10/2019,310,6.64,2,,,0.28,26.84,0.02,,,,,,,,
NER,Niger,NERs009369,Sayam-Forage,WVN,NER-NERs009369-001,Unknown,13.63216667,12.50688889,,inactive,6/10/2015,,,,no,70,38.8,electrical_pump,"Grundfos, SP30A08",66.6,7.5,generator,,,8,pvc,40.0-64.0,24,,porous,16.2,,,,,,4,22/06/2015,,7.34,,,,0.14,5.34,0.07,,,,,,,,Non operationnel. Screen Type: PVC. Screen length: 24m.
NER,Niger,NERs009369,Sayam-Forage,UNHCR-DRH/A,NER-NERs009369-002,Unknown,13.62319444,12.50513889,313,active,,,,,no,11,2.78,electrical_pump,"Grundfos, 40 SQF-5, centrifugal pump",6,1.4,solar_generator,,,,steel,,,,porous,8.18,,,,,,10,,,,,,,,,,,,,,,,,Screen Type: Steel.
NER,Niger,NERs009369,Sayam-Forage,UNHCR-Oxfam(FE-2),NER-NERs009369-000003,Unknown,13.62338889,12.50741667,286,active,28/10/2016,,,,no,81,35.72,electrical_pump,"Grundfos, SP11-20",65,5.5,solar_generator,,,8,pvc,"51.25-63.13, 69.03-74.96",17.81,,porous,10,,,,,,10,26/07/2018,,7.43,,0.2,,0.12,7.48,0.235,,,,,,,,Screen Type: PVC. Screen length: 17.81m.
NER,Niger,NERs009369,Sayam-Forage,UNHCR-DRH/A(FE-4),NER-NERs009369-000004,Unknown,13.63763889,12.51772222,294,active,20/07/2017,,,,no,78,37.67,electrical_pump,"Grundfos, SP8A21",74,4,solar_generator,,,8,pvc,55.31-72.96,17.65,,porous,8,,,,,,10,27/07/2018,,7.1,,0.1,,0.02,9.24,0.39,,,,,,,,Screen Type: PVC. Screen length: 17.65m.
NER,Niger,NERs004466,Tabareybarey,ADRA01,NER-NERs004466-001,Unknown,14.77502778,0.95558333,252,inactive,1/1/2012,,,,no,,,hand_pump,Vergnet PHV60,,,,,,4,pvc,,,,fractured_rock,0.4,,,,,,24,,,,,,,,,,,,,,,,,Screen Type: PVC
NER,Niger,NERs004466,Tabareybarey,ADRA02,NER-NERs004466-002,Unknown,14.775,0.95590833,250,inactive,1/1/2012,,,,no,,,hand_pump,Vergnet PHV60,,,,,,4,pvc,,,,fractured_rock,0.4,,,,,,24,,,,,,,,,,,,,,,,,Non operationnel. Screen Type: PVC.
NER,Niger,NERs004466,Tabareybarey,PLAN01,NER-NERs004466-003,Unknown,14.77936111,0.95908333,253,inactive,1/1/2013,,,,no,80,,hand_pump,Vergnet PHV60,,,,,,4,pvc,,,,fractured_rock,0.4,,,,,,24,,,,,,,,,,,,,,,,,Non operationnel. Screen Type: PVC.
NER,Niger,NERs009391,Tazalite,TAZALIT,NER--005,Unknown,16.90041667,5.26344444,374,active,1/1/2013,,,,no,430,41.2,electrical_pump,"Grundfos, SP30A08",74.1,15,generator,,,8,pvc,,,,porous,48,,,,,,24,23/04/2015,,8.72,,,,,5.28,1.06,,,,,,,,Screen Type: PVC
