Iso3,Country,Site ID,Site name,Borehole name,Automatic Borehole ID,Local Borehole ID,Latitude,Longitude,Elevation in meters above sea level,Status,Drilling date,Unknown drilling date,Last editor,Date of update,Hidden borehole,Depth in m,Static water level in meters below ground level,Type of pump,Pump brand and model,Pump depth in m,Pump motor power in kilowatt,Energy source,Generator brand and model,Generator capacity in kilovolt-ampere (kVA),Casing diameter in inch,Casing material,Screened areas in m,Sum of screened areas in m,End of casing/start of open hole in m,Aquifer type,Driller's yield in m3/hr,Dynamic Water Level at driller's yield in m,Pumping tests (DWL [m] - yield [m3/hr]),Pumping test quality control evaluation from solar tool (read only),Safe yield from solar tool in m3/hr (read only),Transmissivity from constant rate pumping test in m2/sec,Daily pumping time in h,Date of last water quality control,Conductivity in micro S/cm (microsiemen/cm),pH,Turbidity in NTU,Ammonia concentration in mg/L,Arsenic concentration in micro g/L,Fluoride concentration in mg/L,Nitrate concentration in mg/L,Nitrite concentration in mg/L,E-Coli,Solar potential in % (read only),Investment cost estimation in $ (read only),Maintenance cost estimation (read only),Solar gross payback in years (read only),Amount of CO2 avoided in tonnes/year (read only),Attachment description,Comments
SDN,Sudan,SDNs015505,Abu Ajura,UNHCR Abu Ajurah 3,SDN-SDNs015505-000001,Unknown,11.588169,24.671086,610,active,3/9/2018,,,,no,48,15,electrical_pump,Sp pump,42,1.8,solar,,,5.5,pvc,,,,,,,,,,,,7/9/2018,,8.2,,,,,,,,,,,,,,"The Borehole  drilled by WES SD donated by UNHCR 
data interred by Eisa Suleiman /WASH Associate  SUD SD Nyala"
SDN,Sudan,SDNs015505,Abu Ajura,North Heath Center,SDN-SDNs015505-000002,Hp1,11.5906,24.67178,673,active,10/8/2018,,Suleiman Ahmed Omer EISA/ WASH Assiciate,17/09/2019,no,45,15,hand_pump,Indian Mark II,33,,,,,4.5,pvc,"34.0-40.0, 41.0-45.0",10,,fractured_rock,5.6,,,,,,8,10/8/2018,,8.2,,,,,,,,,,,,,,
SDN,Sudan,SDNs015505,Abu Ajura,Al Salam School,SDN-SDNs015505-000003,HP2,11.58997,24.67125,607,active,5/9/2018,,Suleiman Ahmed Omer EISA/ WASH Associate,18/09/2019,no,45,15,hand_pump,Indian Mark II,33,,,,,4.5,pvc,,,,fractured_rock,5,,,,,,8,,,,,,,,,,,,,,,,,
SDN,Sudan,SDNs015505,Abu Ajura,NW Market,SDN-SDNs015505-000004,HP3,11.594573,24.673089,607,active,5/9/2018,,Suleiman Ahmed Omer EISA /WASH Associate,19/09/2019,no,36,10,hand_pump,Indian Mark II,25,,,,,4.5,pvc,30.0-36.0,6,,fractured_rock,6,,,,,,8,,,,,,,,,,,,,,,,,
SDN,Sudan,SDNs015505,Abu Ajura,Al Baytary area,SDN-SDNs015505-000005,HP4,11.59808,24.67655,605,active,8/9/2018,,Suleiman Ahmed Omer EISA / WASH Associate,19/09/2019,no,36,10,hand_pump,Indian Mark II,25,,,,,4.6,pvc,30.0-36.0,6,,fractured_rock,5.6,,,,,,8,,,,,,,,,,,,,,,,,
SDN,Sudan,SDNs015505,Abu Ajura,East Market,SDN-SDNs015505-000006,HP 5,11.59453,24.67599,606,active,8/9/2018,,Suleiman Ahmed Omer EISA / WASH Associate,22/09/2019,no,45,25,hand_pump,Indian Mark II,33,,,,,4.5,pvc,39.0-45.0,6,,fractured_rock,4.5,,,,,,8,8/9/2018,,,,,,,,,,,,,,,,
SDN,Sudan,SDNs015505,Abu Ajura,Al Mahdia area,SDN-SDNs015505-000007,HP6,11.5967,24.67779,506,active,7/9/2019,,Suleiman Ahmed  Omer EISA / WASH Associate,22/09/2019,no,30,10,hand_pump,Indian Mark II,21,,,,,4.5,pvc,24.0-30.0,6,,,,,,,,,,,,,,,,,,,,,,,,,,
SDN,Sudan,SDNs027995,Abu Jubaiha Town,Water point - Abu jubaiha IOM,SDN-SDNs027995-000001,MWY1,11.457194,31.242978,567,active,,no,"Mazen, WASH Associate",23/10/2019,no,,,electrical_pump,,,,solar_generator,,,,,,,,,,,,,,,,,,,,,,,,,,,,,,,,
SDN,Sudan,SDNs027995,Abu Jubaiha Town,Water point 2- Abu jubaiha IOM,SDN-SDNs027995-000002,MWY2,11.45295,31.242211,567,active,,no,"Mazen, WASH Associate",23/10/2019,no,,,electrical_pump,,,,solar_generator,,,,,,,,,,,,,,,,,,,,,,,,,,,,,,,,
SDN,Sudan,SDNs027984,Abu Nowara,Abu Nowara WY,SDN-SDNs027984-000001,1,11.187719,31.516595,446,active,,yes,"Mazen, WASH Associate",30/09/2019,no,,,electrical_pump,,,,generator,,,,,,,,,,,,,,,,,,,,,,,,,,,,,,,,
SDN,Sudan,SDNs027984,Abu Nowara,Abu Nowara MWY,SDN-SDNs027984-000002,2,11.185375,31.517758,,active,19/12/2018,no,"Mazen, WASH Associate",30/10/2019,no,,,electrical_pump,,,,solar_generator,china,18,8,pvc,,,,fractured_rock,6.28,,,,,,10,,,,,,,,,,,,,,,,,
SDN,Sudan,SDNs001478,Abuda,Northern station,SDN-SDNs001478-000001,Unknown,14.35944,35.88561,514.6,active,,no,Jay Matta,22/06/2020,no,145,62.6,electrical_pump,GRUNDFOS/SP 8A-25N,,4,solar_generator,,,6,steel,"102.0-108.0, 125.8-137.2",17.4,,,24,,,,,,5.5,14/01/2017,1220,8.2,1,1.56,,1.7,1.76,0.04,,,,,,,,Screen type: Johnson continuous slot
SDN,Sudan,SDNs001478,Abuda,Southern station,SDN-SDNs001478-000002,Unknown,14.34753,35.89094,513.3,active,,no,Jay Matta,22/06/2020,no,130,63.4,electrical_pump,LORENTZ/C-SJ 17-18,,11,solar_generator,,,8.5,steel,112.8-124.4,11.6,,,24,,,,,,9,14/01/2017,1067,8,1,0.06,,2.05,1.76,0.04,,,,,,,,Screen type: Johnson continuous slot
SDN,Sudan,SDNs001478,Abuda,New station,SDN-SDNs001478-000003,Unknown,14.36172,35.88845,519,active,5/7/2016,no,Jay Matta,22/06/2020,no,143,60,electrical_pump,Caprari,,18,generator,,,8.5,steel,"112.8-125.0, 131.0-137.2",18.4,,,,,,,,,4.5,14/01/2017,1438,8.2,1,0.6,,0.4,0.01,0.1,,,,,,,,Screen type: Johnson continuous slot
SDN,Sudan,SDNs027979,Al-Nimir,Oxfam Drilled BH,SDN-SDNs027979-000001,Unknown,11.22413,26.0061,,active,22/10/2017,,,,no,238,81.66,electrical_pump,WORTEX 4R521,85.5,7.5,generator,Perkins,33,8.63,steel,"195.0-201.0, 207.0-225.0",24,,porous,16.5,,,,,,8,,,,5,,,,,,,,,,,,,
SDN,Sudan,SDNs027979,Al-Nimir,CIS El nimir 1,SDN-SDNs027979-000002,Unknown,11.383203,26.003372,,active,,,,,no,275,86.8,electrical_pump,Grundfos,96,7.5,generator,perkins,33,8.63,steel,"195.0-201.0, 207.0-219.0",18,,porous,12,,,,,,10,,,6.8,5,,,,,,,,,,,,,
SDN,Sudan,SDNs027979,Al-Nimir,CIS El nimir 2,SDN-SDNs027979-000003,Unknown,11.387372,26.004961,,active,15/07/1970,,Ellen Milnes,20/05/2019,no,270,,electrical_pump,,120,7.5,generator,perkins,33,8.63,steel,,,,,14,,,,,,6,,,6.8,5,,,,,,,,,,,,,The stated yield refers to the operational yield
SDN,Sudan,SDNs034950,Buram,UNHCR Buram SSR,SDN-SDNs034950-000001,BH 1,10.829933,25.157698,477,active,25/06/2018,no,Suleiman Ahmed Omer EISA / WASH Associate,1/10/2019,no,283,71.81,electrical_pump,Bedrolla,93,7.5,generator,perkins,30,8,steel,"236-247, 259-265",17,,fractured_rock,26.9,,,,,,5,,,,,,,,,,,,,,,,,
SDN,Sudan,SDNs027985,Dar Batti,,SDN-SDNs027985-000001,HP5,10.25125,30.686472,445,active,,,"Mazen, WASH Associate",18/09/2019,no,,,hand_pump,,,,,,,,,,,,,,,,,,,,,,,,,,,,,,,,,,,,
SDN,Sudan,SDNs027985,Dar Batti,,SDN-SDNs027985-000002,HP7,10.244889,30.682083,442,inactive,,,"Mazen, WASH Associate",18/09/2019,no,,,hand_pump,,,,,,,,,,,,,,,,,,,,,,,,,,,,,,,,,,,,
SDN,Sudan,SDNs027982,El Ferdous,Oxfam Ferdous BH,SDN-SDNs027982-000001,Unknown,11.087889,25.821083,457,active,21/11/2017,,Osam,1/7/2019,no,238,67.5,electrical_pump,WORTEX 4R521,85.5,7.5,generator,perkins,33,8.63,steel,,,,porous,20,,,,,,4,,,,5,,,,,,,,,,,,,
SDN,Sudan,,El Radom ,SSR Schools,SDN--000004,HP3,9.830855,24.829151,508,active,24/04/2019,,Suleiman Ahmed Omer EISA / WASH Associate,24/09/2019,no,51,22,hand_pump,Indian Mark II,33,,,,,4.5,pvc,42.0-51.0,9,,fractured_rock,4,,,,,,8,,,,,,,,,,,,,,,,,
SDN,Sudan,,El Radoom,UNHCR RAD 1,SDN--000001,Unknown,9.818809,24.833008,502,active,19/12/2017,,Suleiman Ahmed Omer EISA/ WASH Associate,24/09/2019,no,45,15,electrical_pump,PANELLI,35,2.2,solar_generator,,,5.5,pvc,39.0-45.0,6,,fractured_rock,5,,,,,,12,,,,,,,,,,,,,,,,,The Borehole drilled by CIS and funded by UNHCR 
SDN,Sudan,,EL Radoom,SSR School,SDN--000011,HP4,10.143028,27.686969,508,active,25/04/2019,no,Suleiman Ahmed Omer EISA / WASH Associate,19/09/2019,no,51,22,hand_pump,Idian Mark II,30,,,,,4.5,pvc,49-51,2,,fractured_rock,3.5,,,,,,8,,,,,,,,,,,,,,,,,
SDN,Sudan,,EL Radoom,SSR Reception Center /NCA,SDN--000006,HP 3,9.82534,24.82745,504,active,10/1/2018,no,Suleiman Ahmed Omer EISA / WASH Associate,24/09/2019,no,45,20,hand_pump,Indian Mark II,24,,,,,4.5,pvc,36.0-45.0,9,,,4,,,,,,8,,,,,,,,,,,,,,,,,This Hand Constructed by  NCA Organization
SDN,Sudan,,EL Radoom,El Radom School,SDN--000007,HP 1,9.826418,24.846382,508,active,2/2/2018,,Suleiman Ahmed Omer EISA/ WASH Associate,24/09/2019,no,50,22,hand_pump,Indian Mark II,30,,,,,4.5,pvc,41.0-50.0,9,,,4,,,,,,8,,,,,,,,,,,,,,,,,
SDN,Sudan,,EL Radoom,SSR NCA Sector 5,SDN--000008,HP 2,9.825324,24.831199,505,active,6/2/2018,,Suleiman Ahmed Omer EISA/ WASH Associate,24/09/2019,no,45,22,hand_pump,Indian Mark II,30,,,,,4.5,pvc,36.0-45.0,9,,fractured_rock,4.6,,,,,,8,,,,,,,,,,,,,,,,,This Hand pump constructed by NCA 
SDN,Sudan,,EL Radoom,A:L Magama El Radom T,SDN--000009,HP 6,9.83308,24.84217,507,active,27/04/2019,no,Suleiman Ahmed Omer EISA / WASH Associate,1/10/2019,no,33,15,hand_pump,Idian Mark II,22,,,,,4.5,pvc,27-33,6,,fractured_rock,3,,,,,,8,,,,,,,,,,,,,,,,,
SDN,Sudan,,EL Radoom,NCA Boerhole SSR WY,SDN--000010,BH 2,9.81795,24.83223,501,active,22/04/2018,no,Suleiman Ahmed Omer EISA / WASH Associate,1/10/2019,no,45,15,electrical_pump,Panneli,35,2.2,solar_generator,Guangdong,10,5.5,pvc,39-45,6,,fractured_rock,6,,,,,,10,,,,,,,,,,,,,,,,,
SDN,Sudan,,EL Radoom ,CAR sector,SDN--000005,HP5,9.827691,24.823887,505,active,25/04/2019,no,Suleiman Ahmed Omer EISA/ WASH Associate,24/09/2019,no,45,18,hand_pump,Idian Mark II,25,,,,,4.5,pvc,36.0-45.0,9,,porous,5,,,,,,8,,,,,,,,,,,,,,,,,
SDN,Sudan,SDNs027978,Kario,Kario 3 (new extension area BH),SDN-SDNs027978-000001,Kario 3,11.135306,26.198778,464.6,inactive,21/07/2019,,Osam Sulien - East Darfur Wash Associate,23/09/2019,no,262.1,72,electrical_pump,Indian,120,11,generator,Perkins 33,33,8.63,steel,"152.4-164.6, 201.0-207.0, 244.0-256.0",30.2,,porous,30,,,,,,,20/08/2019,,7,5,,,,,,,,,,,,,
SDN,Sudan,SDNs027978,Kario,Kario Western BH,SDN-SDNs027978-000002,Kario 1,11.151472,26.211389,462,active,21/07/2016,,Osam Sulien - East Darfur Wash Assoicate,23/09/2019,no,248,27.91,electrical_pump,,120,7.5,generator,Perkins,33,8.63,steel,"201.0-207.0, 238.0-244.0",12,,porous,25,,,,,,8,,,6.8,5,,,,,,,,,,,,,
SDN,Sudan,SDNs027978,Kario,Kario Eastren BH,SDN-SDNs027978-000003,Kario 2,11.151472,26.211389,464,active,25/05/2016,,Osam Sulien - East Darfur Wash Assoicate,24/09/2019,no,244,27.9,electrical_pump,Indian,120,7.5,generator,Perkins,33,8.63,steel,"152.0-164.6, 201.0-224.0",35.6,,porous,30,,,,,,6,,,6.8,5,,,,,,,,,,,,,
SDN,Sudan,SDNs027989,Kharasan,Kharasana water yard - new,SDN-SDNs027989-000001,2,10.519417,29.288611,,inactive,1/3/2018,,"Mazen, WASH Associate",19/09/2019,no,,,electrical_pump,,,,generator,,,,,,,,,,,,,,,,,,,,,,,,,,,,,,,,
SDN,Sudan,,Kharasana ,Kharasana SSRs Water Yard,SDN--000002,1,10.524417,29.28725,429,inactive,31/05/2016,,"Mazen, WASH Associate",17/09/2019,no,,,electrical_pump,,120,7.5,generator,,,8,pvc,,,,,,,,,,,,,,,,,,,,,,,,,,,,
SDN,Sudan,SDNs027988,Meiram,The main water point,SDN-SDNs027988-000001,2,10.142972,27.690639,417,active,,,"Mazen, WASH Associate",19/09/2019,no,,,electrical_pump,,,,solar_generator,,,,,,,,,,,,,,,,,,,,,,,,,,,,,,,,
SDN,Sudan,SDNs027988,Meiram,Meiram Water Yard,SDN-SDNs027988-000002,Meiram WY,10.151917,27.696528,411,active,27/11/2003,no,"Mazen, WASH Associate",27/11/2019,no,,,electrical_pump,,,,generator,"Perkins, FG Wilson",22,8,steel,,,,porous,,,,,,,6,,,,,,,,,,,,,,,,"photos taken at WY during field visit, the WY was constructed by GNPOC  (oil company) in 2003. the water yard serving local community and refugees in the northern districts of El Meiram.",
SDN,Sudan,SDNs027988,Meiram,Baraka water yard,SDN-SDNs027988-000003,Meiram WY Baraka,10.148806,27.686611,410,inactive,,no,"Mazen, WASH Associate",27/11/2019,no,,,electrical_pump,,,,generator,"Olympian, Caterpillar GEP33-3",33,8,steel,,,,porous,,,,,,,,,,,,,,,,,,,,,,,"the water yard is inactive now due to a problem in the electric generator, currently under repair.",
SDN,Sudan,SDNs027988,Meiram,Islamic organization water point,SDN-SDNs027988-000004,2,10.143028,27.686972,,active,,yes,"Mazen, WASH Associate",27/11/2019,no,,,electrical_pump,,,,solar_generator,indoria,,8,steel,,,,porous,,,,,,,,,,,,,,,,,,,,,,,,Recently rehabilitated borehole by IRW.
SDN,Sudan,SDNs001504,Um Gargour,Main station,SDN-SDNs001504-000001,Unknown,14.50255,35.63636,524.6,active,,no,Jay Matta,22/06/2020,no,150,82,electrical_pump,LORENTZ/C-SJ 17-18,,11,solar_generator,,,6,steel,115.0-132.4,17.4,,,24,,,,,,11,14/01/2017,2120,7.3,2,,,4.3,1.32,0.05,,,,,,,Borehole ID was renamed as Main BH instead of East BH,Screen type: Johnson continuous slots
SDN,Sudan,SDNs001504,Um Gargour,North station,SDN-SDNs001504-000002,Unknown,14.50725,35.62978,525.7,active,7/8/2011,no,Jay Matta,22/06/2020,no,142,76,electrical_pump,LORENTZ/C-SJ 17-18,,11,solar_generator,,,8.5,steel,133.5-139.5,6,,,20,,,,,,5,14/01/2017,2200,7.9,3,1.68,,3.8,1.32,0.04,,,,,,,,Screen type: Johnson continuous slot
SDN,Sudan,SDNs001504,Um Gargour,South station,SDN-SDNs001504-000003,Unknown,14.50125,35.62593,526.4,active,31/12/2010,no,Jay Matta,22/06/2020,no,135,76,electrical_pump,GRUNDFOS/SP 8A-25N,,5.5,solar_generator,,,6,pvc,103.0-120.4,17.4,,,15,,,,,,5,14/01/2017,2320,7.2,3,2.28,,4.6,2.2,0.04,,,,,,,,
SDN,Sudan,SDNs001510,Wad Sharife,Main station,SDN-SDNs001510-000001,Unknown,15.35684,36.45502,531.6,active,,no,Jay Matta,22/06/2020,no,31,23,electrical_pump,GRUNDFOS/SP 8A-25N,,4,solar_generator,,,6,pvc,23.0-29.5,6.5,,,20,,,,,,12,9/1/2017,1188,8.2,1,,,2.94,3.52,0.02,,,,,,,,
SDN,Sudan,SDNs001510,Wad Sharife,Eastern station,SDN-SDNs001510-000002,Unknown,15.35551,36.45682,530.9,active,,no,Jay Matta,22/06/2020,no,30,21.6,electrical_pump,GRUNDFOS/SP 8A-25N,,5.5,solar_generator,,,6,pvc,21.4-27.4,6,,,20,,,,,,8,9/1/2017,1161,8.2,1,0.62,,2.1,6.6,0.04,,,,,,,Report with bore construction and some testing data but no borehole lithology or aquifer type.,
SDN,Sudan,SDNs001510,Wad Sharife,Western station,SDN-SDNs001510-000003,Unknown,15.36057,36.44355,523.4,active,,no,Jay Matta,22/06/2020,no,32,16.9,electrical_pump,GRUNDFOS/SP 8A-25N,,4,solar_generator,,,6,pvc,25.5-30.2,4.7,,,20.5,,,,,,11,9/1/2017,1463,8,1,0.36,,0.6,4.84,0.02,,,,,,,,
SDN,Sudan,SDNs001510,Wad Sharife,Western station B,SDN-SDNs001510-000004,Unknown,15.3604,36.44341,522.6,inactive,,,,,no,,,electrical_pump,,,,solar_generator,,,6,,,,,,,,,,,,,,,,,,,,,,,,,,,,,
SDN,Sudan,,,,SDN--000003,HP6,10.246667,30.686111,446,inactive,,,"Mazen, WASH Associate",18/09/2019,no,,,hand_pump,,,,,,,,,,,,,,,,,,,,,,,,,,,,,,,,,,,,
